{"type":"FeatureCollection","features":[{"type":"Feature","properties":{"Name":"Bezirksbauernkammer Deutschlandsberg","Address":"Wielandgasse 14 8530 Deutschlandsberg","Telephone":"03462/2314","Latitude":"46.8164","Longitude":"15.2150"},"geometry":{"type":"Point","coordinates":[15.215,46.8164]}},{"type":"Feature","properties":{"Name":"Bezirksbauernkammer Graz-Umgebung","Address":"Hauptstraße 159 8141 Premstätten","Telephone":"0316/710810","Latitude":"47.0004","Longitude":"15.3932"},"geometry":{"type":"Point","coordinates":[15.3932,47.0004]}},{"type":"Feature","properties":{"Name":"Bezirksbauernkammer Hartberg-Fürstenfeld","Address":"Im Gewerbepark 8 8230 Hartberg","Telephone":"03332/63920","Latitude":"47.2738","Longitude":"15.9692"},"geometry":{"type":"Point","coordinates":[15.9692,47.2738]}},{"type":"Feature","properties":{"Name":"Bezirksbauernkammer Leibnitz","Address":"Dr. Karl-Renner-Gasse 1 8430 Leibnitz","Telephone":"03452/82911","Latitude":"46.7826","Longitude":"15.5435"},"geometry":{"type":"Point","coordinates":[15.5435,46.7826]}},{"type":"Feature","properties":{"Name":"Bezirksbauernkammer Leoben","Address":"Kärntner Straße 311 8700 Leoben","Telephone":"03842/44098","Latitude":"47.3769","Longitude":"15.0891"},"geometry":{"type":"Point","coordinates":[15.0891,47.3769]}},{"type":"Feature","properties":{"Name":"Bezirksbauernkammer Liezen","Address":"Hauptstraße 25 8940 Liezen","Telephone":"03612/22482","Latitude":"47.5668","Longitude":"14.2371"},"geometry":{"type":"Point","coordinates":[14.2371,47.5668]}},{"type":"Feature","properties":{"Name":"Bezirksbauernkammer Murau","Address":"Amtsgasse 3 8850 Murau","Telephone":"03532/2214","Latitude":"47.1101","Longitude":"14.1761"},"geometry":{"type":"Point","coordinates":[14.1761,47.1101]}},{"type":"Feature","properties":{"Name":"Bezirksbauernkammer Murtal","Address":"Burggasse 63 8750 Judenburg","Telephone":"03572/82591","Latitude":"47.1664","Longitude":"14.6601"},"geometry":{"type":"Point","coordinates":[14.6601,47.1664]}},{"type":"Feature","properties":{"Name":"Bezirksbauernkammer Südoststeiermark","Address":"St. Florian 15 8490 Bad Radkersburg","Telephone":"03476/2255","Latitude":"46.6838","Longitude":"15.9932"},"geometry":{"type":"Point","coordinates":[15.9932,46.6838]}},{"type":"Feature","properties":{"Name":"Bezirksbauernkammer Voitsberg","Address":"Crottendorferstraße 2 8570 Voitsberg","Telephone":"03142/23770","Latitude":"47.0458","Longitude":"15.1512"},"geometry":{"type":"Point","coordinates":[15.1512,47.0458]}},{"type":"Feature","properties":{"Name":"Bezirksbauernkammer Weiz","Address":"Dr. Karl-Widdmann-Straße 10 8160 Weiz","Telephone":"03172/4581","Latitude":"47.2181","Longitude":"15.6206"},"geometry":{"type":"Point","coordinates":[15.6206,47.2181]}}]}